{
  "extracted_at": "2026-01-12T08:12:07.960Z",
  "geocoded_at": "2026-01-12T08:17:19.282Z",
  "source_url": "https://frankfurt.de/themen/kultur/literatur/bibliotheken/buecherschraenke",
  "total_count": 82,
  "geocoded_count": 82,
  "failed_count": 0,
  "locations": [
    {
      "name": "Bücherschrank Altstadt - Buchgasse",
      "district": "Altstadt",
      "location_short": "Buchgasse",
      "street": "Buchgasse 2",
      "postal_code": "60311",
      "city": "Frankfurt am Main",
      "additional_info": "An der Kreuzung Buchgasse/Alte Mainzer Gasse",
      "latitude": "50.1094862",
      "longitude": "8.6800997",
      "geocode_confidence": "low",
      "geocode_display_name": "2, Buchgasse, Altstadt, Innenstadt 1, Frankfurt am Main, Hessen, 60311, Deutschland"
    },
    {
      "name": "Bücherschrank Bahnhofsviertel - Gallusanlage (englischsprachig)",
      "district": "Bahnhofsviertel",
      "location_short": "Gallusanlage (englischsprachig)",
      "street": "Gallusanlage 7",
      "postal_code": "60329",
      "city": "Frankfurt am Main",
      "latitude": "50.1095054",
      "longitude": "8.6712214",
      "geocode_confidence": "low",
      "geocode_display_name": "English Theatre Frankfurt, 7, Gallusanlage, Innenstadt, Innenstadt 1, Frankfurt am Main, Hessen, 60329, Deutschland"
    },
    {
      "name": "Bücherschrank Bergen-Enkheim - Triebstraße/Leuchte (Enkheim)",
      "district": "Bergen",
      "location_short": "Enkheim - Triebstraße/Leuchte (Enkheim)",
      "street": "Triebstraße 83",
      "postal_code": "60388",
      "city": "Frankfurt am Main",
      "latitude": "50.1431108",
      "longitude": "8.7554309",
      "geocode_confidence": "low",
      "geocode_display_name": "83, Triebstraße, Enkheim, Bergen-Enkheim, Frankfurt am Main, Hessen, 60388, Deutschland"
    },
    {
      "name": "Bücherschrank Berkersheim - Am Dachsberg",
      "district": "Berkersheim",
      "location_short": "Am Dachsberg",
      "street": "Am Dachsberg 17",
      "postal_code": "60435",
      "city": "Frankfurt am Main",
      "latitude": "50.1699438",
      "longitude": "8.6964641",
      "geocode_confidence": "low",
      "geocode_display_name": "17, Am Dachsberg, Berkersheim, Nord-Ost, Frankfurt am Main, Hessen, 60435, Deutschland"
    },
    {
      "name": "Bücherschrank Bockenheim - Kirchplatz",
      "district": "Bockenheim",
      "location_short": "Kirchplatz",
      "street": "Kirchplatz",
      "postal_code": "60487",
      "city": "Frankfurt am Main",
      "latitude": "50.1252224",
      "longitude": "8.6373458",
      "geocode_confidence": "high",
      "geocode_display_name": "Kirchplatz, Bockenheim, Innenstadt 2, Frankfurt am Main, Hessen, 60487, Deutschland"
    },
    {
      "name": "Bücherschrank Bockenheim - Kollwitzstraße",
      "district": "Bockenheim",
      "location_short": "Kollwitzstraße",
      "street": "Kollwitzstraße",
      "postal_code": "60488",
      "city": "Frankfurt am Main",
      "latitude": "50.1394686",
      "longitude": "8.6114632",
      "geocode_confidence": "high",
      "geocode_display_name": "Kollwitzstraße, Praunheim, Mitte-West, Frankfurt am Main, Hessen, 60488, Deutschland"
    },
    {
      "name": "Bücherschrank Bockenheim - Friedrich-Naumann-Platz (Kuhwaldsiedlung)",
      "district": "Bockenheim",
      "location_short": "Friedrich-Naumann-Platz (Kuhwaldsiedlung)",
      "street": "Funckstraße 14",
      "postal_code": "60486",
      "city": "Frankfurt am Main",
      "latitude": "50.1132605",
      "longitude": "8.6315587",
      "geocode_confidence": "low",
      "geocode_display_name": "14, Funckstraße, Kuhwaldsiedlung, Bockenheim, Innenstadt 2, Frankfurt am Main, Hessen, 60486, Deutschland"
    },
    {
      "name": "Bücherschrank Bockenheim - Leipziger Straße",
      "district": "Bockenheim",
      "location_short": "Leipziger Straße",
      "street": "Leipziger Straße 54",
      "postal_code": "60487",
      "city": "Frankfurt am Main",
      "latitude": "50.1226750",
      "longitude": "8.6461689",
      "geocode_confidence": "low",
      "geocode_display_name": "54, Leipziger Straße, Einkaufsmeile Leipziger Straße, Bockenheim, Innenstadt 2, Frankfurt am Main, Hessen, 60487, Deutschland"
    },
    {
      "name": "Bücherschrank Bonames/Kalbach - Tower Café",
      "district": "Bonames/Kalbach",
      "location_short": "Tower Café",
      "street": "Am Burghof 55",
      "postal_code": "60437",
      "city": "Frankfurt am Main",
      "additional_info": "Alter Flugplatz Bonames",
      "latitude": "50.1777718",
      "longitude": "8.6596152",
      "geocode_confidence": "low",
      "geocode_display_name": "55, Am Burghof, Kalbach, Kalbach-Riedberg, Frankfurt am Main, Hessen, 60437, Deutschland"
    },
    {
      "name": "Bücherschrank Bonames - Platz am Wendelsgarten",
      "district": "Bonames",
      "location_short": "Platz am Wendelsgarten",
      "street": "Am Wendelsgarten",
      "postal_code": "60437",
      "city": "Frankfurt am Main",
      "latitude": "50.1839659",
      "longitude": "8.6659930",
      "geocode_confidence": "high",
      "geocode_display_name": "Am Wendelsgarten, Bonames, Nord-Ost, Frankfurt am Main, Hessen, 60437, Deutschland"
    },
    {
      "name": "Bücherschrank Bornheim - Berger Straße",
      "district": "Bornheim",
      "location_short": "Berger Straße",
      "street": "Berger Straße 253",
      "postal_code": "60385",
      "city": "Frankfurt am Main",
      "latitude": "50.1285867",
      "longitude": "8.7109976",
      "geocode_confidence": "low",
      "geocode_display_name": "253, Berger Straße, Bornheim, Bornheim/Ostend, Frankfurt am Main, Hessen, 60385, Deutschland"
    },
    {
      "name": "Bücherschrank Bornheim - Friedberger Warte",
      "district": "Bornheim",
      "location_short": "Friedberger Warte",
      "street": "Valentin-Senger-Straße 140",
      "postal_code": "60389",
      "city": "Frankfurt am Main",
      "latitude": "50.1401582",
      "longitude": "8.6997172",
      "geocode_confidence": "low",
      "geocode_display_name": "140, Valentin-Senger-Straße, Bornheim, Bornheim/Ostend, Frankfurt am Main, Hessen, 60389, Deutschland"
    },
    {
      "name": "Bücherschrank Bornheim - Im Prüfling",
      "district": "Bornheim",
      "location_short": "Im Prüfling",
      "street": "Neebstraße 15",
      "postal_code": "60385",
      "city": "Frankfurt am Main",
      "additional_info": "Ecke Im Prüfling/vor Prager Botschaft",
      "latitude": "50.1285826",
      "longitude": "8.7067692",
      "geocode_confidence": "low",
      "geocode_display_name": "15, Neebstraße, Bornheim, Bornheim/Ostend, Frankfurt am Main, Hessen, 60385, Deutschland"
    },
    {
      "name": "Bücherschrank Dornbusch -  Albert-Schweitzer-Siedlung",
      "district": "Dornbusch",
      "location_short": "Albert-Schweitzer-Siedlung",
      "street": "Ecke Grafenstraße/Reinhardstraße",
      "postal_code": "60433",
      "city": "Frankfurt am Main",
      "latitude": "50.1619",
      "longitude": "8.6657",
      "geocode_confidence": "medium",
      "geocode_display_name": "Grafenstraße/Reinhardstraße, Dornbusch, Frankfurt am Main, 60433"
    },
    {
      "name": "Bücherschrank Dornbusch - Jean-Paul-Straße",
      "district": "Dornbusch",
      "location_short": "Jean-Paul-Straße",
      "street": "Jean-Paul-Straße",
      "postal_code": "60320",
      "city": "Frankfurt am Main",
      "additional_info": "Ecke Jean-Paul-Straße/Eichendorffstraße",
      "latitude": "50.1436894",
      "longitude": "8.6639990",
      "geocode_confidence": "high",
      "geocode_display_name": "Jean-Paul-Straße, Dornbusch, Mitte-Nord, Frankfurt am Main, Hessen, 60320, Deutschland"
    },
    {
      "name": "Bücherschrank Dornbusch -  Platenstraße",
      "district": "Dornbusch",
      "location_short": "Platenstraße",
      "street": "Platenstraße 75",
      "postal_code": "60431",
      "city": "Frankfurt am Main",
      "latitude": "50.1374555",
      "longitude": "8.6617478",
      "geocode_confidence": "low",
      "geocode_display_name": "Astrid-Lindgren-Schule, 75, Platenstraße, Dornbusch, Mitte-Nord, Frankfurt am Main, Hessen, 60431, Deutschland"
    },
    {
      "name": "Bücherschrank Dornbusch - Eschersheimer Landstraße 248",
      "district": "Dornbusch",
      "location_short": "Eschersheimer Landstraße 248",
      "street": "Eschersheimer Landstraße 248",
      "postal_code": "60320",
      "city": "Frankfurt am Main",
      "latitude": "50.1394743",
      "longitude": "8.6706931",
      "geocode_confidence": "low",
      "geocode_display_name": "248, Eschersheimer Landstraße, Dornbusch, Mitte-Nord, Frankfurt am Main, Hessen, 60320, Deutschland"
    },
    {
      "name": "Bücherschrank Eckenheim - Gelnhäuser Straße",
      "district": "Eckenheim",
      "location_short": "Gelnhäuser Straße",
      "street": "Gelnhäuser Straße 2",
      "postal_code": "60435",
      "city": "Frankfurt am Main",
      "additional_info": "Bürgerhaus Ronneburg",
      "latitude": "50.1502934",
      "longitude": "8.6904085",
      "geocode_confidence": "low",
      "geocode_display_name": "Saalbau Ronneburg, 2, Gelnhäuser Straße, Eckenheim, Nord-Ost, Frankfurt am Main, Hessen, 60435, Deutschland"
    },
    {
      "name": "Bücherschrank Eckenheim - Gießener Straße 44",
      "district": "Eckenheim",
      "location_short": "Gießener Straße 44",
      "street": "Gießener Straße 44",
      "postal_code": "60435",
      "city": "Frankfurt am Main",
      "additional_info": "Hauptfriedhof auf Höhe Gießener Straße 44",
      "latitude": "50.1424916",
      "longitude": "8.6932478",
      "geocode_confidence": "low",
      "geocode_display_name": "44, Gießener Straße, Eckenheim, Nord-Ost, Frankfurt am Main, Hessen, 60435, Deutschland"
    },
    {
      "name": "Bücherschrank Eckenheim - Porthstraße",
      "district": "Eckenheim",
      "location_short": "Porthstraße",
      "street": "Porthstraße 1",
      "postal_code": "60435",
      "city": "Frankfurt am Main",
      "latitude": "50.1432800",
      "longitude": "8.6837695",
      "geocode_confidence": "low",
      "geocode_display_name": "1-3, Porthstraße, Eckenheim, Nord-Ost, Frankfurt am Main, Hessen, 60435, Deutschland"
    },
    {
      "name": "Bücherschrank Eckenheim - Sigmund-Freud-Straße",
      "district": "Eckenheim",
      "location_short": "Sigmund-Freud-Straße",
      "street": "Sigmund-Freud-Straße",
      "postal_code": "60435",
      "city": "Frankfurt am Main",
      "latitude": "50.1535236",
      "longitude": "8.6812187",
      "geocode_confidence": "high",
      "geocode_display_name": "Sigmund-Freud-Straße, Eckenheim, Nord-Ost, Frankfurt am Main, Hessen, 60435, Deutschland"
    },
    {
      "name": "Bücherschrank Eschersheim - Am Weißen Stein",
      "district": "Eschersheim",
      "location_short": "Am Weißen Stein",
      "street": "Am Weißen Stein",
      "postal_code": "60431",
      "city": "Frankfurt am Main",
      "latitude": "50.1571176",
      "longitude": "8.6553342",
      "geocode_confidence": "high",
      "geocode_display_name": "Am Weißen Stein, Eschersheim, Mitte-Nord, Frankfurt am Main, Hessen, 60431, Deutschland"
    },
    {
      "name": "Bücherschrank Eschersheim - Im Geeren",
      "district": "Eschersheim",
      "location_short": "Im Geeren",
      "street": "Im Geeren",
      "postal_code": "60433",
      "city": "Frankfurt am Main",
      "latitude": "50.1616999",
      "longitude": "8.6623028",
      "geocode_confidence": "high",
      "geocode_display_name": "Im Geeren, Eschersheim, Mitte-Nord, Frankfurt am Main, Hessen, 60433, Deutschland"
    },
    {
      "name": "Bücherschrank Eschersheim - Niedwiesenstraße",
      "district": "Eschersheim",
      "location_short": "Niedwiesenstraße",
      "street": "Niedwiesenstraße",
      "postal_code": "60431",
      "city": "Frankfurt am Main",
      "latitude": "50.1527824",
      "longitude": "8.6506894",
      "geocode_confidence": "high",
      "geocode_display_name": "Niedwiesenstraße, Eschersheim, Mitte-Nord, Frankfurt am Main, Hessen, 60431, Deutschland"
    },
    {
      "name": "Bücherschrank Fechenheim - Ankergasse",
      "district": "Fechenheim",
      "location_short": "Ankergasse",
      "street": "Ankergasse",
      "postal_code": "60386",
      "city": "Frankfurt am Main",
      "latitude": "50.1224927",
      "longitude": "8.7714891",
      "geocode_confidence": "high",
      "geocode_display_name": "Ankergasse, Fechenheim, Ost, Frankfurt am Main, Hessen, 60386, Deutschland"
    },
    {
      "name": "Bücherschrank Fechenheim - Langenselbolder Straße/Birsteiner Straße",
      "district": "Fechenheim",
      "location_short": "Langenselbolder Straße/Birsteiner Straße",
      "street": "Birsteiner Straße 63",
      "postal_code": "60386",
      "city": "Frankfurt am Main",
      "latitude": "50.1339534",
      "longitude": "8.7538645",
      "geocode_confidence": "low",
      "geocode_display_name": "63, Birsteiner Straße, Fechenheim-Nord, Fechenheim, Ost, Frankfurt am Main, Hessen, 60386, Deutschland"
    },
    {
      "name": "Bücherschrank Frankfurter Berg -  Malvenweg",
      "district": "Frankfurter Berg",
      "location_short": "Malvenweg",
      "street": "Malvenweg",
      "postal_code": "60433",
      "city": "Frankfurt am Main",
      "latitude": "50.1672738",
      "longitude": "8.6816392",
      "geocode_confidence": "high",
      "geocode_display_name": "Malvenweg, Frankfurter Berg, Nord-Ost, Frankfurt am Main, Hessen, 60433, Deutschland"
    },
    {
      "name": "Bücherschrank Gallus - Ackermannstraße",
      "district": "Gallus",
      "location_short": "Ackermannstraße",
      "street": "Ackermannstraße 33",
      "postal_code": "60326",
      "city": "Frankfurt am Main",
      "latitude": "50.0982695",
      "longitude": "8.6266910",
      "geocode_confidence": "low",
      "geocode_display_name": "33, Ackermannstraße, Friedrich-Ebert-Siedlung, Gallus, Innenstadt 1, Frankfurt am Main, Hessen, 60326, Deutschland"
    },
    {
      "name": "Bücherschrank Gallus - Anspacher Straße",
      "district": "Gallus",
      "location_short": "Anspacher Straße",
      "street": "Anspacher Straße",
      "postal_code": "60326",
      "city": "Frankfurt am Main",
      "latitude": "50.1052579",
      "longitude": "8.6210870",
      "geocode_confidence": "high",
      "geocode_display_name": "Anspacher Straße, Gallus, Innenstadt 1, Frankfurt am Main, Hessen, 60326, Deutschland"
    },
    {
      "name": "Bücherschrank Gallus - Golub-Lebedenko-Platz",
      "district": "Gallus",
      "location_short": "Golub-Lebedenko-Platz",
      "street": "Golub-Lebedenko-Platz",
      "postal_code": "60326",
      "city": "Frankfurt am Main",
      "latitude": "50.1014141",
      "longitude": "8.6397467",
      "geocode_confidence": "high",
      "geocode_display_name": "Golub-Lebedenko-Platz, Lahnstraße, Gallus, Innenstadt 1, Frankfurt am Main, Hessen, 60326, Deutschland"
    },
    {
      "name": "Bücherschrank Gallus - Schneidhainer Straße",
      "district": "Gallus",
      "location_short": "Schneidhainer Straße",
      "street": "Schneidhainer Straße 1",
      "postal_code": "60326",
      "city": "Frankfurt am Main",
      "latitude": "50.1036294",
      "longitude": "8.6296085",
      "geocode_confidence": "low",
      "geocode_display_name": "1, Schneidhainer Straße, Hellerhofsiedlung, Gallus, Innenstadt 1, Frankfurt am Main, Hessen, 60326, Deutschland"
    },
    {
      "name": "Bücherschrank Ginnheim - Ginnheimer Kirchplatz",
      "district": "Ginnheim",
      "location_short": "Ginnheimer Kirchplatz",
      "street": "Ginnheimer Hohl 2",
      "postal_code": "60431",
      "city": "Frankfurt am Main",
      "additional_info": "Ginnheimer Kirchplatz",
      "latitude": "50.1443790",
      "longitude": "8.6492355",
      "geocode_confidence": "low",
      "geocode_display_name": "2, Ginnheimer Hohl, Ginnheim, Mitte-Nord, Frankfurt am Main, Hessen, 60431, Deutschland"
    },
    {
      "name": "Bücherschrank Ginnheim - Höhenblick",
      "district": "Ginnheim",
      "location_short": "Höhenblick",
      "street": "Höhenblick 2",
      "postal_code": "60431",
      "city": "Frankfurt am Main",
      "latitude": "50.1469959",
      "longitude": "8.6550682",
      "geocode_confidence": "low",
      "geocode_display_name": "2, Höhenblick, Ginnheim, Mitte-Nord, Frankfurt am Main, Hessen, 60431, Deutschland"
    },
    {
      "name": "Bücherschrank Griesheim - Alte Falterstraße",
      "district": "Griesheim",
      "location_short": "Alte Falterstraße",
      "street": "Alte Falterstraße",
      "postal_code": "65933",
      "city": "Frankfurt am Main",
      "latitude": "50.0923629",
      "longitude": "8.6070574",
      "geocode_confidence": "high",
      "geocode_display_name": "Alte Falterstraße, Griesheim, West, Frankfurt am Main, Hessen, 65933, Deutschland"
    },
    {
      "name": "Bücherschrank Gutleutviertel - Schönstraße",
      "district": "Gutleutviertel",
      "location_short": "Schönstraße",
      "street": "Schönstraße",
      "postal_code": "60327",
      "city": "Frankfurt am Main",
      "additional_info": "Schönstraße/Hardenbergstraße",
      "latitude": "50.1019379",
      "longitude": "8.6575338",
      "geocode_confidence": "high",
      "geocode_display_name": "Schönstraße, Gutleutviertel, Innenstadt 1, Frankfurt am Main, Hessen, 60327, Deutschland"
    },
    {
      "name": "Bücherschrank Gutleutviertel - Werftstraße",
      "district": "Gutleutviertel",
      "location_short": "Werftstraße",
      "street": "Werftstraße 15",
      "postal_code": "60327",
      "city": "Frankfurt am Main",
      "latitude": "50.1021767",
      "longitude": "8.6611924",
      "geocode_confidence": "low",
      "geocode_display_name": "15, Werftstraße, Gutleutviertel, Innenstadt 1, Frankfurt am Main, Hessen, 60327, Deutschland"
    },
    {
      "name": "Bücherschrank Harheim - Alter Harheimer Kirchplatz",
      "district": "Harheim",
      "location_short": "Alter Harheimer Kirchplatz",
      "street": "Alter Harheimer Kirchplatz",
      "postal_code": "60437",
      "city": "Frankfurt am Main",
      "latitude": "50.1822072",
      "longitude": "8.6927745",
      "geocode_confidence": "high",
      "geocode_display_name": "Alter Harheimer Kirchplatz, Harheim, Frankfurt am Main, Hessen, 60437, Deutschland"
    },
    {
      "name": "Bücherschrank Hausen - Kleine Nelkenstraße",
      "district": "Hausen",
      "location_short": "Kleine Nelkenstraße",
      "street": "Kleine Nelkenstraße",
      "postal_code": "60488",
      "city": "Frankfurt am Main",
      "additional_info": "Kreuzung Praunheimer Landstraße/Kleine Nelkenstraße",
      "latitude": "50.1333921",
      "longitude": "8.6266307",
      "geocode_confidence": "high",
      "geocode_display_name": "Kleine Nelkenstraße, Hausen, Mitte-West, Frankfurt am Main, Hessen, 60488, Deutschland"
    },
    {
      "name": "Bücherschrank Höchst -  Andreasplatz",
      "district": "Höchst",
      "location_short": "Andreasplatz",
      "street": "Andreasplatz",
      "postal_code": "65929",
      "city": "Frankfurt am Main",
      "latitude": "50.1024530",
      "longitude": "8.5502177",
      "geocode_confidence": "high",
      "geocode_display_name": "Andreasplatz, Höchst, West, Frankfurt am Main, Hessen, 65929, Deutschland"
    },
    {
      "name": "Bücherschrank Heddernheim - Hadrianstraße",
      "district": "Heddernheim",
      "location_short": "Hadrianstraße",
      "street": "Hadrianstraße",
      "postal_code": "60439",
      "city": "Frankfurt am Main",
      "additional_info": "Ecke In der Römerstadt/Hadrianstraße",
      "latitude": "50.1521845",
      "longitude": "8.6404191",
      "geocode_confidence": "high",
      "geocode_display_name": "Hadrianstraße, Heddernheim, Nord-West, Frankfurt am Main, Hessen, 60439, Deutschland"
    },
    {
      "name": "Bücherschrank Heddernheim - Karl-Perott-Platz",
      "district": "Heddernheim",
      "location_short": "Karl-Perott-Platz",
      "street": "Karl-Perott-Platz",
      "postal_code": "60439",
      "city": "Frankfurt am Main",
      "latitude": "50.1602592",
      "longitude": "8.6455980",
      "geocode_confidence": "high",
      "geocode_display_name": "Karl-Perott-Platz, Heddernheim, Nord-West, Frankfurt am Main, Hessen, 60439, Deutschland"
    },
    {
      "name": "Bücherschrank Kalbach - Kalbacher Hauptstraße",
      "district": "Kalbach",
      "location_short": "Kalbacher Hauptstraße",
      "street": "Kalbacher Hauptstraße 36",
      "postal_code": "60437",
      "city": "Frankfurt am Main",
      "latitude": "50.1891127",
      "longitude": "8.6392968",
      "geocode_confidence": "low",
      "geocode_display_name": "Altes Rathaus Kalbach, 36, Kalbacher Hauptstraße, Kalbach, Kalbach-Riedberg, Frankfurt am Main, Hessen, 60437, Deutschland"
    },
    {
      "name": "Bücherschrank Niederursel - Kupferhammer (Mertonviertel)",
      "district": "Niederursel",
      "location_short": "Kupferhammer (Mertonviertel)",
      "street": "Fläche zwischen Sebastian-Kneipp-Straße und Kupferhammer",
      "postal_code": "60439",
      "city": "Frankfurt am Main",
      "latitude": "50.1637",
      "longitude": "8.6363",
      "geocode_confidence": "medium",
      "geocode_display_name": "Kupferhammer/Sebastian-Kneipp-Straße, Niederursel, Frankfurt am Main, 60439"
    },
    {
      "name": "Bücherschrank Nied - Alt-Nied 1",
      "district": "Nied",
      "location_short": "Alt-Nied 1",
      "street": "Alt-Nied 1",
      "postal_code": "65934",
      "city": "Frankfurt am Main",
      "additional_info": "ehem. Rathaus",
      "latitude": "50.1000370",
      "longitude": "8.5642261",
      "geocode_confidence": "low",
      "geocode_display_name": "Ehemaliges Rathaus, 1, Alt-Nied, Nied, West, Frankfurt am Main, Hessen, 65934, Deutschland"
    },
    {
      "name": "Bücherschrank Nied - Neumarkt",
      "district": "Nied",
      "location_short": "Neumarkt",
      "street": "Neumarkt 3",
      "postal_code": "65934",
      "city": "Frankfurt am Main",
      "latitude": "50.1081049",
      "longitude": "8.5843539",
      "geocode_confidence": "low",
      "geocode_display_name": "3, Neumarkt, Nied, West, Frankfurt am Main, Hessen, 65934, Deutschland"
    },
    {
      "name": "Bücherschrank Nieder-Erlenbach - Am Bürgerbrunnen",
      "district": "Nieder",
      "location_short": "Erlenbach - Am Bürgerbrunnen",
      "street": "Am Bürgerbrunnen",
      "postal_code": "60437",
      "city": "Frankfurt am Main",
      "latitude": "50.2027002",
      "longitude": "8.7091800",
      "geocode_confidence": "high",
      "geocode_display_name": "Am Bürgerbrunnen, Nieder-Erlenbach, Frankfurt am Main, Hessen, 60437, Deutschland"
    },
    {
      "name": "Kinderbücherschrank Nieder-Eschbach – Ben-Gurion-Ring 39",
      "district": "Kinderbücherschrank Nieder",
      "location_short": "Eschbach – Ben-Gurion-Ring 39",
      "street": "Ben-Gurion-Ring 39",
      "postal_code": "60437",
      "city": "Frankfurt am Main",
      "latitude": "50.1919280",
      "longitude": "8.6621903",
      "geocode_confidence": "low",
      "geocode_display_name": "39, Ben-Gurion-Ring, Gewerbegebiet Nieder-Eschbach, Bonames, Nieder-Eschbach, Frankfurt am Main, Hessen, 60437, Deutschland"
    },
    {
      "name": "Bücherschrank Nieder-Eschbach - Deuil-La-Barre-Straße 26",
      "district": "Nieder",
      "location_short": "Eschbach - Deuil-La-Barre-Straße 26",
      "street": "Deuil-La-Barre-Straße 26",
      "postal_code": "60437",
      "city": "Frankfurt am Main",
      "additional_info": "Bürgeramt",
      "latitude": "50.1987571",
      "longitude": "8.6713837",
      "geocode_confidence": "low",
      "geocode_display_name": "26, Deuil-La-Barre-Straße, Nieder-Eschbach, Frankfurt am Main, Hessen, 60437, Deutschland"
    },
    {
      "name": "Bücherschrank Niederrad - Bruchfeldstraße",
      "district": "Niederrad",
      "location_short": "Bruchfeldstraße",
      "street": "Bruchfeldstraße 65",
      "postal_code": "60528",
      "city": "Frankfurt am Main",
      "latitude": "50.0863383",
      "longitude": "8.6436643",
      "geocode_confidence": "low",
      "geocode_display_name": "65, Bruchfeldstraße, Niederrad, Süd, Frankfurt am Main, Hessen, 60528, Deutschland"
    },
    {
      "name": "Bücherschrank Niederursel - Ecke Weißkirchener Weg / Gerhart-Hauptmann-Ring",
      "district": "Niederursel",
      "location_short": "Ecke Weißkirchener Weg / Gerhart-Hauptmann-Ring",
      "street": "Ecke Weißkirchener Weg/Gerhart-Hauptmann-Ring",
      "postal_code": "60439",
      "city": "Frankfurt am Main",
      "latitude": "50.1582",
      "longitude": "8.6229",
      "geocode_confidence": "medium",
      "geocode_display_name": "Weißkirchener Weg/Gerhart-Hauptmann-Ring, Niederursel, Frankfurt am Main, 60439"
    },
    {
      "name": "Bücherschrank Niederursel - Kultur- und Sozialzentrum",
      "district": "Niederursel",
      "location_short": "Kultur- und Sozialzentrum",
      "street": "Gerhart-Hauptmann-Ring 398",
      "postal_code": "60439",
      "city": "Frankfurt am Main",
      "latitude": "50.1594907",
      "longitude": "8.6202429",
      "geocode_confidence": "low",
      "geocode_display_name": "398, Gerhart-Hauptmann-Ring, Nordweststadt, Niederursel, Nord-West, Frankfurt am Main, Hessen, 60439, Deutschland"
    },
    {
      "name": "Bücherschrank Nordend-Ost - Hallgartenstraße",
      "district": "Nordend",
      "location_short": "Ost - Hallgartenstraße",
      "street": "Hallgartenstraße 17",
      "postal_code": "60389",
      "city": "Frankfurt am Main",
      "latitude": "50.1306146",
      "longitude": "8.6996432",
      "geocode_confidence": "low",
      "geocode_display_name": "17, Hallgartenstraße, Nordend Ost, Innenstadt 3, Frankfurt am Main, Hessen, 60389, Deutschland"
    },
    {
      "name": "Bücherschrank Nordend-Ost - Merianplatz",
      "district": "Nordend",
      "location_short": "Ost - Merianplatz",
      "street": "Merianplatz",
      "postal_code": "60316",
      "city": "Frankfurt am Main",
      "latitude": "50.1199769",
      "longitude": "8.6950815",
      "geocode_confidence": "high",
      "geocode_display_name": "Merianplatz, Berger Straße, Nordend Ost, Innenstadt 3, Frankfurt am Main, Hessen, 60316, Deutschland"
    },
    {
      "name": "Bücherschrank Nordend-West - Glauburgstraße",
      "district": "Nordend",
      "location_short": "West - Glauburgstraße",
      "street": "Glauburgstraße",
      "postal_code": "60318",
      "city": "Frankfurt am Main",
      "additional_info": "Haltestelle Glauburgstraße (Ecke Glauburgstraße/Eckenheimer Landstraße",
      "latitude": "50.1268792",
      "longitude": "8.6880801",
      "geocode_confidence": "high",
      "geocode_display_name": "Glauburgstraße, Nordend West, Innenstadt 3, Frankfurt am Main, Hessen, 60318, Deutschland"
    },
    {
      "name": "Bücherschrank Nordend-West - Holzhausenpark",
      "district": "Nordend",
      "location_short": "West - Holzhausenpark",
      "street": "Holzhausenpark",
      "postal_code": "",
      "city": "Frankfurt am Main",
      "latitude": "50.1271712",
      "longitude": "8.6758505",
      "geocode_confidence": "high",
      "geocode_display_name": "Chirurgische Praxis am Holzhausenpark, Holzhausenstraße, Nordend West, Innenstadt 3, Frankfurt am Main, Hessen, 60322, Deutschland"
    },
    {
      "name": "Bücherschrank Nordend-West - Maria-Ward-Platz",
      "district": "Nordend",
      "location_short": "West - Maria-Ward-Platz",
      "street": "Maria-Ward-Platz",
      "postal_code": "60318",
      "city": "Frankfurt am Main",
      "latitude": "50.1221209",
      "longitude": "8.6899942",
      "geocode_confidence": "high",
      "geocode_display_name": "Maria-Ward-Platz, Nordend West, Innenstadt 3, Frankfurt am Main, Hessen, 60318, Deutschland"
    },
    {
      "name": "Bücherschrank Nordend-West - Oeder Weg/Bornwiesenweg",
      "district": "Nordend",
      "location_short": "West - Oeder Weg/Bornwiesenweg",
      "street": "Oeder Weg 43",
      "postal_code": "60318",
      "city": "Frankfurt am Main",
      "latitude": "50.1211678",
      "longitude": "8.6799934",
      "geocode_confidence": "low",
      "geocode_display_name": "43, Oeder Weg, Nordend West, Innenstadt 3, Frankfurt am Main, Hessen, 60318, Deutschland"
    },
    {
      "name": "Bücherschrank Oberrad - Buchrainplatz",
      "district": "Oberrad",
      "location_short": "Buchrainplatz",
      "street": "Buchrainplatz",
      "postal_code": "60599",
      "city": "Frankfurt am Main",
      "latitude": "50.1001239",
      "longitude": "8.7245472",
      "geocode_confidence": "high",
      "geocode_display_name": "Buchrainplatz, Oberrad, Süd, Frankfurt am Main, Hessen, 60599, Deutschland"
    },
    {
      "name": "Bücherschrank Ostend -  Parlamentsplatz",
      "district": "Ostend",
      "location_short": "Parlamentsplatz",
      "street": "Parlamentsplatz",
      "postal_code": "60385",
      "city": "Frankfurt am Main",
      "latitude": "50.1200650",
      "longitude": "8.7135633",
      "geocode_confidence": "high",
      "geocode_display_name": "Parlamentsplatz, Rhönstraße, Ostend, Bornheim/Ostend, Frankfurt am Main, Hessen, 60385, Deutschland"
    },
    {
      "name": "Bücherschrank Ostend - Paul-Arnsberg-Platz",
      "district": "Ostend",
      "location_short": "Paul-Arnsberg-Platz",
      "street": "Paul-Arnsberg-Platz",
      "postal_code": "60314",
      "city": "Frankfurt am Main",
      "latitude": "50.1109900",
      "longitude": "8.6992952",
      "geocode_confidence": "high",
      "geocode_display_name": "Paul-Arnsberg-Platz, Ostend, Bornheim/Ostend, Frankfurt am Main, Hessen, 60314, Deutschland"
    },
    {
      "name": "Bücherschrank Praunheim - In der Römerstadt 272",
      "district": "Praunheim",
      "location_short": "In der Römerstadt 272",
      "street": "In der Römerstadt 272",
      "postal_code": "60488",
      "city": "Frankfurt am Main",
      "latitude": "50.1513079",
      "longitude": "8.6231707",
      "geocode_confidence": "low",
      "geocode_display_name": "272, In der Römerstadt, Praunheim, Mitte-West, Frankfurt am Main, Hessen, 60488, Deutschland"
    },
    {
      "name": "Bücherschrank Praunheim - Siedlung Westhausen",
      "district": "Praunheim",
      "location_short": "Siedlung Westhausen",
      "street": "Kollwitzstraße",
      "postal_code": "60488",
      "city": "Frankfurt am Main",
      "latitude": "50.1389491",
      "longitude": "8.6132529",
      "geocode_confidence": "high",
      "geocode_display_name": "Kollwitzstraße, Praunheim, Mitte-West, Frankfurt am Main, Hessen, 60488, Deutschland"
    },
    {
      "name": "Bücherschrank Preungesheim - Gravensteiner-Platz",
      "district": "Preungesheim",
      "location_short": "Gravensteiner-Platz",
      "street": "Gravensteiner-Platz",
      "postal_code": "60435",
      "city": "Frankfurt am Main",
      "latitude": "50.1558421",
      "longitude": "8.6983034",
      "geocode_confidence": "high",
      "geocode_display_name": "Gravensteiner-Platz, Preungesheim, Nord-Ost, Frankfurt am Main, Hessen, 60435, Deutschland"
    },
    {
      "name": "Bücherschrank Preungesheim - Wegscheidestraße",
      "district": "Preungesheim",
      "location_short": "Wegscheidestraße",
      "street": "Wegscheidestraße",
      "postal_code": "60435",
      "city": "Frankfurt am Main",
      "additional_info": "Karl-Kirchner-Sdlg.",
      "latitude": "50.1521431",
      "longitude": "8.6954595",
      "geocode_confidence": "high",
      "geocode_display_name": "Wegscheidestraße, Preungesheim, Nord-Ost, Frankfurt am Main, Hessen, 60435, Deutschland"
    },
    {
      "name": "Bücherschrank Rödelheim - Arthur-Stern-Platz",
      "district": "Rödelheim",
      "location_short": "Arthur-Stern-Platz",
      "street": "Arthur-Stern-Platz",
      "postal_code": "60489",
      "city": "Frankfurt am Main",
      "latitude": "50.1240640",
      "longitude": "8.6067637",
      "geocode_confidence": "high",
      "geocode_display_name": "Arthur-Stern-Platz, Rödelheim, Mitte-West, Frankfurt am Main, Hessen, 60489, Deutschland"
    },
    {
      "name": "Bücherschrank Riedberg -  Riedbergplatz",
      "district": "Riedberg",
      "location_short": "Riedbergplatz",
      "street": "Riedbergplatz",
      "postal_code": "60438",
      "city": "Frankfurt am Main",
      "latitude": "50.1766022",
      "longitude": "8.6289897",
      "geocode_confidence": "high",
      "geocode_display_name": "Riedbergplatz, Riedberg, Kalbach-Riedberg, Frankfurt am Main, Hessen, 60438, Deutschland"
    },
    {
      "name": "Bücherschrank Riederwald -  Raiffeisenstraße",
      "district": "Riederwald",
      "location_short": "Raiffeisenstraße",
      "street": "Raiffeisenstraße",
      "postal_code": "60386",
      "city": "Frankfurt am Main",
      "latitude": "50.1282277",
      "longitude": "8.7326823",
      "geocode_confidence": "high",
      "geocode_display_name": "Raiffeisenstraße, Riederwald, Ost, Frankfurt am Main, Hessen, 60386, Deutschland"
    },
    {
      "name": "Bücherschrank Sachsenhausen -  Dreieichstraße",
      "district": "Sachsenhausen",
      "location_short": "Dreieichstraße",
      "street": "Dreieichstraße 59",
      "postal_code": "60594",
      "city": "Frankfurt am Main",
      "latitude": "50.1029221",
      "longitude": "8.6909837",
      "geocode_confidence": "low",
      "geocode_display_name": "FITSEVENELEVEN, 59, Dreieichstraße, Süd, Sachsenhausen Nord, Süd, Frankfurt am Main, Hessen, 60594, Deutschland"
    },
    {
      "name": "Bücherschrank Sachsenhausen - An der Lukaskirche",
      "district": "Sachsenhausen",
      "location_short": "An der Lukaskirche",
      "street": "Morgensternstraße",
      "postal_code": "60596",
      "city": "Frankfurt am Main",
      "additional_info": "An der Lukaskirche",
      "latitude": "50.1015896",
      "longitude": "8.6772650",
      "geocode_confidence": "medium",
      "geocode_display_name": "Morgensternstraße, Nord, Sachsenhausen, Süd, Frankfurt am Main, Hessen, 60594, Deutschland"
    },
    {
      "name": "Bücherschrank Sachsenhausen-Süd - Mailänder Straße/Grethenweg",
      "district": "Sachsenhausen",
      "location_short": "Süd - Mailänder Straße/Grethenweg",
      "street": "Mailänder Straße",
      "postal_code": "60598",
      "city": "Frankfurt am Main",
      "latitude": "50.0905597",
      "longitude": "8.6876315",
      "geocode_confidence": "medium",
      "geocode_display_name": "Mailänder Straße, Süd, Sachsenhausen Süd, Süd, Frankfurt am Main, Hessen, 60599, Deutschland"
    },
    {
      "name": "Bücherschrank Sachsenhausen-Nord - Schweizer Platz",
      "district": "Sachsenhausen",
      "location_short": "Nord - Schweizer Platz",
      "street": "Schweizer Platz",
      "postal_code": "60594",
      "city": "Frankfurt am Main",
      "latitude": "50.1024094",
      "longitude": "8.6800572",
      "geocode_confidence": "high",
      "geocode_display_name": "Schweizer Platz, 52, Schweizer Straße, Nord, Sachsenhausen Nord, Süd, Frankfurt am Main, Hessen, 60594, Deutschland"
    },
    {
      "name": "Bücherschrank Sachsenhausen - Walther-von-Cronberg-Platz",
      "district": "Sachsenhausen",
      "location_short": "Walther-von-Cronberg-Platz",
      "street": "Walther-von-Cronberg-Platz",
      "postal_code": "60594",
      "city": "Frankfurt am Main",
      "latitude": "50.1058435",
      "longitude": "8.6968066",
      "geocode_confidence": "high",
      "geocode_display_name": "Walther-von-Cronberg-Platz, Sachsenhausen Nord, Süd, Frankfurt am Main, Hessen, 60594, Deutschland"
    },
    {
      "name": "Bücherschrank Seckbach -  Atzelbergplatz",
      "district": "Seckbach",
      "location_short": "Atzelbergplatz",
      "street": "Atzelbergplatz",
      "postal_code": "60389",
      "city": "Frankfurt am Main",
      "latitude": "50.1405259",
      "longitude": "8.7200334",
      "geocode_confidence": "high",
      "geocode_display_name": "Atzelbergplatz, Seckbach, Ost, Frankfurt am Main, Hessen, 60389, Deutschland"
    },
    {
      "name": "Bücherschrank Seckbach - Wilhelmshöher Straße 149",
      "district": "Seckbach",
      "location_short": "Wilhelmshöher Straße 149",
      "street": "Wilhelmshöher Straße 149",
      "postal_code": "60389",
      "city": "Frankfurt am Main",
      "additional_info": "Altes Rathaus",
      "latitude": "50.1448127",
      "longitude": "8.7269952",
      "geocode_confidence": "low",
      "geocode_display_name": "149, Wilhelmshöher Straße, Seckbach, Ost, Frankfurt am Main, Hessen, 60389, Deutschland"
    },
    {
      "name": "Bücherschrank Sindlingen - Richard-Weidlich-Platz",
      "district": "Sindlingen",
      "location_short": "Richard-Weidlich-Platz",
      "street": "Richard-Weidlich-Platz",
      "postal_code": "65931",
      "city": "Frankfurt am Main",
      "latitude": "50.0880960",
      "longitude": "8.5119495",
      "geocode_confidence": "high",
      "geocode_display_name": "Richard-Weidlich-Platz, Sindlingen, West, Frankfurt am Main, Hessen, 65931, Deutschland"
    },
    {
      "name": "Bücherschrank Sossenheim - Carl-Sonnenschein-Siedlung",
      "district": "Sossenheim",
      "location_short": "Carl-Sonnenschein-Siedlung",
      "street": "Carl-Sonnenschein-Straße",
      "postal_code": "65936",
      "city": "Frankfurt am Main",
      "additional_info": "Carl-Sonnenschein-Siedlung",
      "latitude": "50.1272367",
      "longitude": "8.5734487",
      "geocode_confidence": "high",
      "geocode_display_name": "Carl-Sonnenschein-Straße, Carl-Sonnenschein-Siedlung, Sossenheim, West, Frankfurt am Main, Hessen, 65936, Deutschland"
    },
    {
      "name": "Bücherschrank Sossenheim - Sossenheimer Riedstraße",
      "district": "Sossenheim",
      "location_short": "Sossenheimer Riedstraße",
      "street": "Sossenheimer Riedstraße",
      "postal_code": "65936",
      "city": "Frankfurt am Main",
      "latitude": "50.1212138",
      "longitude": "8.5694511",
      "geocode_confidence": "high",
      "geocode_display_name": "Sossenheimer Riedstraße, Sossenheim, West, Frankfurt am Main, Hessen, 65936, Deutschland"
    },
    {
      "name": "Bücherschrank Schwanheim - Bürgerhaus Goldstein",
      "district": "Schwanheim",
      "location_short": "Bürgerhaus Goldstein",
      "street": "Goldsteinstraße 314",
      "postal_code": "60529",
      "city": "Frankfurt am Main",
      "latitude": "50.0825057",
      "longitude": "8.6090977",
      "geocode_confidence": "low",
      "geocode_display_name": "314, Goldsteinstraße, Schwanheim, West, Frankfurt am Main, Hessen, 60529, Deutschland"
    },
    {
      "name": "Bücherschrank Unterliederbach - An der Ludwig-Erhard-Schule",
      "district": "Unterliederbach",
      "location_short": "An der Ludwig-Erhard-Schule",
      "street": "An der Ludwig-Erhard-Schule",
      "postal_code": "65929",
      "city": "Frankfurt am Main",
      "latitude": "50.1097",
      "longitude": "8.5368",
      "geocode_confidence": "medium",
      "geocode_display_name": "Ludwig-Erhard-Schule, An der Ludwig-Erhard-Schule, Unterliederbach, Frankfurt am Main, 65929"
    },
    {
      "name": "Bücherschrank Unterliederbach - Sieringstraße 54",
      "district": "Unterliederbach",
      "location_short": "Sieringstraße 54",
      "street": "Sieringstraße 54",
      "postal_code": "65929",
      "city": "Frankfurt am Main",
      "latitude": "50.1113393",
      "longitude": "8.5448815",
      "geocode_confidence": "low",
      "geocode_display_name": "54, Sieringstraße, Unterliederbach, West, Frankfurt am Main, Hessen, 65929, Deutschland"
    },
    {
      "name": "Bücherschrank Westend - Odina-Bott-Platz",
      "district": "Westend",
      "location_short": "Odina-Bott-Platz",
      "street": "Odina-Bott-Platz 1",
      "postal_code": "60323",
      "city": "Frankfurt am Main",
      "latitude": "50.1182820",
      "longitude": "8.6636187",
      "geocode_confidence": "low",
      "geocode_display_name": "Odina-Bott-Platz, Westend Süd, Innenstadt 2, Frankfurt am Main, Hessen, 60323, Deutschland"
    },
    {
      "name": "Bücherschrank Zeilsheim - Bechtenwaldstraße",
      "district": "Zeilsheim",
      "location_short": "Bechtenwaldstraße",
      "street": "Bechtenwaldstraße 3",
      "postal_code": "65931",
      "city": "Frankfurt am Main",
      "latitude": "50.0972018",
      "longitude": "8.4977879",
      "geocode_confidence": "low",
      "geocode_display_name": "3, Bechtenwaldstraße, Kolonie, Zeilsheim, West, Frankfurt am Main, Hessen, 65931, Deutschland"
    }
  ]
}